[{"event": "CamJam Raspberry Pi Birthday Party 2024", "start": "2024-03-02", "end": "2024-03-02", "location": "Cambridge, UK", "link": "https://lu.ma/CamJamBirthday24", "status": "closed", "image": "/assets/img/events/camjam_2024.png", "latitude": "52.2055314", "longitude": "0.1186637"}, {"event": "Makers Central 2023", "start": "2023-05-13", "end": "2023-05-14", "location": "Birmingham, UK", "link": "https://www.makerscentral.co.uk/", "status": "closed", "image": "/assets/img/events/makers_central_2024.jpg", "latitude": "52.4796992", "longitude": "-1.9026911"}, {"event": "Raspberry Pi 5 Launch", "start": "2023-09-21", "end": "2023-09-22", "location": "Cambridge, UK", "link": "https://www.raspberrypi.com/", "status": "closed", "image": "/assets/img/events/raspberry_pi5.jpg", "latitude": "52.2055314", "longitude": "0.1186637"}, {"event": "Maker Faire Rome 2023", "start": "2023-10-19", "end": "2023-10-23", "location": "Fiera Di Roma, Italy", "link": "https://www.makerfairerome.eu/", "status": "closed", "image": "/assets/img/events/makerfairerome_2024.jpg", "latitude": "41.8100626", "longitude": "12.319237277213883"}, {"event": "Opensauce 2024", "start": "2024-06-15", "end": "2024-06-16", "location": "San Francisco, USA", "link": "https://www.opensauce.live/", "status": "confirmed", "image": "/assets/img/events/opensauce_2024.jpg", "latitude": "37.7792588", "longitude": "-122.4193286"}, {"event": "Liverpool Makefest 2024", "start": "2024-07-06", "end": "2024-07-06", "location": "Liverpool, UK", "link": "https://liverpoolmakefest.org/", "status": "confirmed", "image": "/assets/img/events/liverpoolmakefest_2024.jpg", "latitude": "53.4071991", "longitude": "-2.99168"}, {"event": "Maker Faire Rome 2024", "start": "2024-10-25", "end": "2024-10-27", "location": "Gazometro Ostiense, Italy", "link": "https://www.makerfairerome.eu/", "status": "confirmed", "image": "/assets/img/events/makerfairerome_2024.jpg", "latitude": "41.86950385", "longitude": "12.474698275356998"}, {"event": "Makers Central 2024", "start": "2024-05-18", "end": "2024-05-19", "location": "Birmingham, UK", "link": "https://www.makerscentral.co.uk/", "status": "confirmed", "image": "/assets/img/events/makers_central_2024.jpg", "latitude": "52.4796992", "longitude": "-1.9026911"}, {"event": "SMRRF 2024", "start": "2024-10-05", "end": "2024-10-06", "location": "Oxford, UK", "link": "https://www.sanjaymortimerfoundation.org/", "status": "expected, date to be confirmed", "image": "/assets/img/events/smrrf_2024.jpg", "latitude": "51.7520131", "longitude": "-1.2578499"}, {"event": "Pi Wars 2024", "start": "2024-04-20", "end": "2024-04-21", "location": "Cambridge, UK", "link": "https://www.piwars.org/", "status": "confirmed", "image": "/assets/img/events/piwars_2024.jpg", "latitude": "52.2055314", "longitude": "0.1186637"}, {"event": "EMFCamp 2024", "start": "2024-05-30", "end": "2024-06-02", "location": "Eastnor Castle, UK", "link": "https://www.emfcamp.org/", "status": "confirmed", "image": "/assets/img/events/emfcamp2024.jpg", "latitude": "52.02970015", "longitude": "-2.3876172900498647"}]